{'DatTime': 1, 'SimTime': 1075.68, 'MediaTime': 1.599998, 'LonAccel': -0.014222, 'LatAccel': 0.104883, 'Throttle': 0, 'Brake': 726.335205, 'Gear': 0, 'Heading': 90.248915, 'HeadingError': 0.004344, 'HeadwayDistance': 311.674299, 'HeadwayTime': 10000, 'Lane': 2, 'LaneOffset': 0.182519, 'RoadOffset': 5.582519, 'Steer': 0.009161, 'TailwayDistance': 10000, 'TailwayTime': 10000, 'Velocity': 1, 'LatVelocity': 0.001476, 'VertVelocity': 0.000756, 'XPos': -3914.686035, 'YPos': -12689.09082, 'ZPos': -0.527242, 'Roll': 0.008389, 'Pitch': -0.086679, 'Yaw': 90.2489, 'EngineRPM': 499.192383, 'SlipFR': 0.747436, 'SlipFL': 0.999001, 'SlipRR': 0.066794, 'SlipRL': 0.99905, 'Label': 0}
{'DatTime': 2, 'SimTime': 1076.67, 'MediaTime': 2.599997, 'LonAccel': 2.530303, 'LatAccel': -0.014296, 'Throttle': 0, 'Brake': 0, 'Gear': 4, 'Heading': 90.593314, 'HeadingError': 0.010355, 'HeadwayDistance': 10000, 'HeadwayTime': 10000, 'Lane': 2, 'LaneOffset': 0.185205, 'RoadOffset': 5.585205, 'Steer': -0.003872, 'TailwayDistance': 10000, 'TailwayTime': 10000, 'Velocity': 1, 'LatVelocity': 0.000146, 'VertVelocity': -0.006109, 'XPos': -3914.688721, 'YPos': -12689.21582, 'ZPos': -0.528892, 'Roll': 0.024184, 'Pitch': 0.001316, 'Yaw': 90.593299, 'EngineRPM': 549.765991, 'SlipFR': 0.99903, 'SlipFL': 0.999046, 'SlipRR': 0.999028, 'SlipRL': 0.999029, 'Label': 0}
{'DatTime': 3, 'SimTime': 1077.67, 'MediaTime': 3.599996, 'LonAccel': 4.003789, 'LatAccel': -0.010087, 'Throttle': 8.777968, 'Brake': 0, 'Gear': 4, 'Heading': 90.600403, 'HeadingError': 0.010479, 'HeadwayDistance': 325.029346, 'HeadwayTime': 1166.422989, 'Lane': 2, 'LaneOffset': 0.184228, 'RoadOffset': 5.584228, 'Steer': -0.045172, 'TailwayDistance': 10000, 'TailwayTime': 35886.69772, 'Velocity': 1, 'LatVelocity': -0.000884, 'VertVelocity': 0.001993, 'XPos': -3914.687744, 'YPos': -12689.30957, 'ZPos': -0.528249, 'Roll': 0.002554, 'Pitch': 0.513253, 'Yaw': 90.600388, 'EngineRPM': 1162.773071, 'SlipFR': 0.999001, 'SlipFL': 0.999005, 'SlipRR': 0.341551, 'SlipRL': 0.339336, 'Label': 0}
{'DatTime': 4, 'SimTime': 1078.67, 'MediaTime': 4.599995, 'LonAccel': 4.945464, 'LatAccel': -0.046157, 'Throttle': 16.97546, 'Brake': 0.046586, 'Gear': 4, 'Heading': 90.517342, 'HeadingError': 0.009029, 'HeadwayDistance': 300.869758, 'HeadwayTime': 104.383562, 'Lane': 2, 'LaneOffset': 0.196923, 'RoadOffset': 5.596923, 'Steer': -0.082546, 'TailwayDistance': 10000, 'TailwayTime': 3469.39363, 'Velocity': 7, 'LatVelocity': -0.006657, 'VertVelocity': 0.041572, 'XPos': -3914.700439, 'YPos': -12687.79688, 'ZPos': -0.527925, 'Roll': 0.019648, 'Pitch': 0.871828, 'Yaw': 90.517326, 'EngineRPM': 1628.9104, 'SlipFR': 0.250253, 'SlipFL': 0.253504, 'SlipRR': 0.184434, 'SlipRL': 0.185894, 'Label': 0}
{'DatTime': 5.001, 'SimTime': 1079.67, 'MediaTime': 5.599994, 'LonAccel': 3.749393, 'LatAccel': -0.054544, 'Throttle': 23.378235, 'Brake': 0, 'Gear': 4, 'Heading': 90.256264, 'HeadingError': 0.004473, 'HeadwayDistance': 303.416452, 'HeadwayTime': 52.279204, 'Lane': 2, 'LaneOffset': 0.218652, 'RoadOffset': 5.618652, 'Steer': -0.061346, 'TailwayDistance': 10000, 'TailwayTime': 1723.018092, 'Velocity': 13, 'LatVelocity': -0.012189, 'VertVelocity': 0.072545, 'XPos': -3914.722168, 'YPos': -12683.39746, 'ZPos': -0.529514, 'Roll': 0.023024, 'Pitch': 0.712422, 'Yaw': 90.256249, 'EngineRPM': 2088.090332, 'SlipFR': 0.082646, 'SlipFL': 0.083097, 'SlipRR': 0.021733, 'SlipRL': 0.02183, 'Label': 0}
{'DatTime': 6.001, 'SimTime': 1080.67, 'MediaTime': 6.599993, 'LonAccel': 2.208212, 'LatAccel': -0.01849, 'Throttle': 23.960306, 'Brake': 0.046586, 'Gear': 4, 'Heading': 89.810014, 'HeadingError': -0.003316, 'HeadwayDistance': 320.487775, 'HeadwayTime': 39.035753, 'Lane': 2, 'LaneOffset': 0.208398, 'RoadOffset': 5.608398, 'Steer': -0.014394, 'TailwayDistance': 10000, 'TailwayTime': 1218.010662, 'Velocity': 19, 'LatVelocity': -0.006065, 'VertVelocity': 0.078035, 'XPos': -3914.711914, 'YPos': -12676.3457, 'ZPos': -0.531248, 'Roll': 0.008109, 'Pitch': 0.547356, 'Yaw': 89.809999, 'EngineRPM': 2537.833496, 'SlipFR': 0.028026, 'SlipFL': 0.027978, 'SlipRR': 0.00129, 'SlipRL': 0.001251, 'Label': 0}
{'DatTime': 7.001, 'SimTime': 1081.68, 'MediaTime': 7.599992, 'LonAccel': 1.540737, 'LatAccel': -0.034916, 'Throttle': 24.130075, 'Brake': 0, 'Gear': 4, 'Heading': 89.802972, 'HeadingError': -0.003439, 'HeadwayDistance': 313.325269, 'HeadwayTime': 31.107457, 'Lane': 2, 'LaneOffset': 0.176904, 'RoadOffset': 5.576904, 'Steer': -0.01565, 'TailwayDistance': 10000, 'TailwayTime': 992.816732, 'Velocity': 23, 'LatVelocity': -0.003641, 'VertVelocity': 0.057408, 'XPos': -3914.68042, 'YPos': -12667.03516, 'ZPos': -0.531798, 'Roll': 0.01774, 'Pitch': 0.344315, 'Yaw': 89.802957, 'EngineRPM': 2072.953857, 'SlipFR': 0.019634, 'SlipFL': 0.019504, 'SlipRR': 0.000924, 'SlipRL': 0.000906, 'Label': 0}
{'DatTime': 8, 'SimTime': 1082.68, 'MediaTime': 8.599991, 'LonAccel': 1.57479, 'LatAccel': -0.056114, 'Throttle': 29.223194, 'Brake': 0, 'Gear': 4, 'Heading': 89.596366, 'HeadingError': -0.007045, 'HeadwayDistance': 329.472706, 'HeadwayTime': 28.412307, 'Lane': 2, 'LaneOffset': 0.118798, 'RoadOffset': 5.518798, 'Steer': -0.023187, 'TailwayDistance': 10000, 'TailwayTime': 862.356922, 'Velocity': 26, 'LatVelocity': -0.004352, 'VertVelocity': 0.070812, 'XPos': -3914.622314, 'YPos': -12656.20508, 'ZPos': -0.532077, 'Roll': 0.023173, 'Pitch': 0.348107, 'Yaw': 89.596351, 'EngineRPM': 2243.388916, 'SlipFR': 0.020267, 'SlipFL': 0.020097, 'SlipRR': 0.000963, 'SlipRL': 0.000983, 'Label': 0}
{'DatTime': 9, 'SimTime': 1083.67, 'MediaTime': 9.59999, 'LonAccel': 1.599581, 'LatAccel': 0.084352, 'Throttle': 31.284697, 'Brake': 0, 'Gear': 4, 'Heading': 89.688443, 'HeadingError': -0.005434, 'HeadwayDistance': 318.131407, 'HeadwayTime': 24.131275, 'Lane': 2, 'LaneOffset': 0.028001, 'RoadOffset': 5.428001, 'Steer': 0.02722, 'TailwayDistance': 10000, 'TailwayTime': 758.531687, 'Velocity': 30, 'LatVelocity': 0.004198, 'VertVelocity': 0.081809, 'XPos': -3914.531494, 'YPos': -12643.94043, 'ZPos': -0.532266, 'Roll': -0.035535, 'Pitch': 0.3568, 'Yaw': 89.688429, 'EngineRPM': 2425.064453, 'SlipFR': 0.020452, 'SlipFL': 0.020714, 'SlipRR': 0.00105, 'SlipRL': 0.001068, 'Label': 0}
{'DatTime': 10, 'SimTime': 1084.67, 'MediaTime': 10.599989, 'LonAccel': 1.594139, 'LatAccel': 0.038672, 'Throttle': 31.696995, 'Brake': 0.046586, 'Gear': 4, 'Heading': 89.891703, 'HeadingError': -0.001886, 'HeadwayDistance': 304.436402, 'HeadwayTime': 20.621157, 'Lane': 2, 'LaneOffset': -0.015647, 'RoadOffset': 5.384353, 'Steer': 0.012616, 'TailwayDistance': 10000, 'TailwayTime': 677.355161, 'Velocity': 33, 'LatVelocity': 0.000998, 'VertVelocity': 0.09085, 'XPos': -3914.487793, 'YPos': -12630.10645, 'ZPos': -0.532454, 'Roll': -0.015412, 'Pitch': 0.353331, 'Yaw': 89.891688, 'EngineRPM': 2625.674805, 'SlipFR': 0.020591, 'SlipFL': 0.020716, 'SlipRR': 0.000949, 'SlipRL': 0.000952, 'Label': 0}
{'DatTime': 11, 'SimTime': 1085.68, 'MediaTime': 11.599988, 'LonAccel': 1.546175, 'LatAccel': 0.015389, 'Throttle': 31.696995, 'Brake': 0, 'Gear': 4, 'Heading': 90.034304, 'HeadingError': 0.000603, 'HeadwayDistance': 323.141968, 'HeadwayTime': 19.749048, 'Lane': 2, 'LaneOffset': -0.021447, 'RoadOffset': 5.378553, 'Steer': 0.003822, 'TailwayDistance': 10000, 'TailwayTime': 611.157, 'Velocity': 37, 'LatVelocity': -0.000098, 'VertVelocity': 0.096919, 'XPos': -3914.481934, 'YPos': -12614.22852, 'ZPos': -0.532661, 'Roll': -0.005402, 'Pitch': 0.340373, 'Yaw': 90.034289, 'EngineRPM': 2816.233643, 'SlipFR': 0.020205, 'SlipFL': 0.02025, 'SlipRR': 0.000906, 'SlipRL': 0.000907, 'Label': 0}
{'DatTime': 12.001, 'SimTime': 1086.67, 'MediaTime': 12.599987, 'LonAccel': 1.487542, 'LatAccel': 0.05382, 'Throttle': 31.502972, 'Brake': 0.046586, 'Gear': 4, 'Heading': 90.172137, 'HeadingError': 0.003008, 'HeadwayDistance': 303.260925, 'HeadwayTime': 16.97833, 'Lane': 2, 'LaneOffset': 0.004497, 'RoadOffset': 5.404497, 'Steer': 0.01136, 'TailwayDistance': 10000, 'TailwayTime': 559.858797, 'Velocity': 40, 'LatVelocity': -0.001432, 'VertVelocity': 0.100806, 'XPos': -3914.507813, 'YPos': -12597.28223, 'ZPos': -0.53292, 'Roll': -0.021867, 'Pitch': 0.324483, 'Yaw': 90.172122, 'EngineRPM': 3030.131104, 'SlipFR': 0.019621, 'SlipFL': 0.019781, 'SlipRR': 0.000918, 'SlipRL': 0.000927, 'Label': 0}
{'DatTime': 13, 'SimTime': 1087.67, 'MediaTime': 13.599986, 'LonAccel': 1.455108, 'LatAccel': -0.002983, 'Throttle': 31.721247, 'Brake': 0.046586, 'Gear': 4, 'Heading': 90.117024, 'HeadingError': 0.002046, 'HeadwayDistance': 307.528224, 'HeadwayTime': 15.90706, 'Lane': 2, 'LaneOffset': 0.055837, 'RoadOffset': 5.455837, 'Steer': 0.003822, 'TailwayDistance': 10000, 'TailwayTime': 517.255294, 'Velocity': 44, 'LatVelocity': 0.001764, 'VertVelocity': 0.10632, 'XPos': -3914.559082, 'YPos': -12578.68164, 'ZPos': -0.533182, 'Roll': 0.004088, 'Pitch': 0.315453, 'Yaw': 90.117009, 'EngineRPM': 3239.190186, 'SlipFR': 0.019472, 'SlipFL': 0.019468, 'SlipRR': 0.000864, 'SlipRL': 0.000856, 'Label': 0}
{'DatTime': 14, 'SimTime': 1088.67, 'MediaTime': 14.599985, 'LonAccel': 1.343557, 'LatAccel': 0.001624, 'Throttle': 30.702625, 'Brake': 0.046586, 'Gear': 4, 'Heading': 90.163784, 'HeadingError': 0.002862, 'HeadwayDistance': 310.23857, 'HeadwayTime': 14.935959, 'Lane': 2, 'LaneOffset': 0.105229, 'RoadOffset': 5.505229, 'Steer': -0.003401, 'TailwayDistance': 10000, 'TailwayTime': 481.434636, 'Velocity': 47, 'LatVelocity': -0.001285, 'VertVelocity': 0.114943, 'XPos': -3914.608398, 'YPos': -12558.62793, 'ZPos': -0.533323, 'Roll': -0.002853, 'Pitch': 0.317126, 'Yaw': 90.163769, 'EngineRPM': 2898.625732, 'SlipFR': 0.017941, 'SlipFL': 0.017942, 'SlipRR': 0.000781, 'SlipRL': 0.000786, 'Label': 0}
{'DatTime': 15, 'SimTime': 1089.67, 'MediaTime': 15.599984, 'LonAccel': 0.874723, 'LatAccel': -0.016094, 'Throttle': 30.532856, 'Brake': 0, 'Gear': 4, 'Heading': 90.094307, 'HeadingError': 0.00165, 'HeadwayDistance': 311.71747, 'HeadwayTime': 14.336627, 'Lane': 2, 'LaneOffset': 0.153894, 'RoadOffset': 5.553894, 'Steer': -0.002145, 'TailwayDistance': 10000, 'TailwayTime': 459.923742, 'Velocity': 49, 'LatVelocity': 0.001568, 'VertVelocity': 0.056273, 'XPos': -3914.656982, 'YPos': -12537.34277, 'ZPos': -0.534188, 'Roll': 0.006651, 'Pitch': 0.148442, 'Yaw': 90.094292, 'EngineRPM': 2527.698486, 'SlipFR': 0.012915, 'SlipFL': 0.012885, 'SlipRR': 0.000539, 'SlipRL': 0.000536, 'Label': 0}
{'DatTime': 16.001, 'SimTime': 1090.67, 'MediaTime': 16.599983, 'LonAccel': 0.886002, 'LatAccel': -0.029401, 'Throttle': 31.502972, 'Brake': 0, 'Gear': 4, 'Heading': 90.034427, 'HeadingError': 0.000605, 'HeadwayDistance': 312.29891, 'HeadwayTime': 13.804021, 'Lane': 2, 'LaneOffset': 0.182543, 'RoadOffset': 5.582543, 'Steer': -0.004501, 'TailwayDistance': 10000, 'TailwayTime': 442.013097, 'Velocity': 51, 'LatVelocity': 0.002666, 'VertVelocity': 0.058298, 'XPos': -3914.685547, 'YPos': -12515.16016, 'ZPos': -0.534286, 'Roll': 0.012194, 'Pitch': 0.147965, 'Yaw': 90.034412, 'EngineRPM': 2601.408936, 'SlipFR': 0.013184, 'SlipFL': 0.013129, 'SlipRR': 0.000569, 'SlipRL': 0.000565, 'Label': 0}
{'DatTime': 17.001, 'SimTime': 1091.67, 'MediaTime': 17.599982, 'LonAccel': 0.868368, 'LatAccel': -0.023194, 'Throttle': 31.43021, 'Brake': 0, 'Gear': 4, 'Heading': 89.962894, 'HeadingError': -0.000644, 'HeadwayDistance': 311.996562, 'HeadwayTime': 13.273073, 'Lane': 2, 'LaneOffset': 0.184584, 'RoadOffset': 5.584584, 'Steer': -0.002145, 'TailwayDistance': 10000, 'TailwayTime': 425.423701, 'Velocity': 53, 'LatVelocity': 0.002978, 'VertVelocity': 0.059244, 'XPos': -3914.6875, 'YPos': -12492.09375, 'ZPos': -0.534444, 'Roll': 0.01032, 'Pitch': 0.144805, 'Yaw': 89.962879, 'EngineRPM': 2669.855469, 'SlipFR': 0.01309, 'SlipFL': 0.013047, 'SlipRR': 0.000553, 'SlipRL': 0.000548, 'Label': 0}
{'DatTime': 18.001, 'SimTime': 1092.67, 'MediaTime': 18.599981, 'LonAccel': 0.84315, 'LatAccel': 0.013356, 'Throttle': 31.236189, 'Brake': 0.046586, 'Gear': 4, 'Heading': 90.040574, 'HeadingError': 0.000712, 'HeadwayDistance': 311.069212, 'HeadwayTime': 12.774289, 'Lane': 2, 'LaneOffset': 0.180035, 'RoadOffset': 5.580035, 'Steer': -0.005757, 'TailwayDistance': 10000, 'TailwayTime': 410.657443, 'Velocity': 55, 'LatVelocity': -0.005105, 'VertVelocity': 0.058488, 'XPos': -3914.682861, 'YPos': -12468.40234, 'ZPos': -0.534633, 'Roll': -0.009049, 'Pitch': 0.137697, 'Yaw': 90.040559, 'EngineRPM': 2732.983887, 'SlipFR': 0.012897, 'SlipFL': 0.012913, 'SlipRR': 0.000537, 'SlipRL': 0.00055, 'Label': 0}
{'DatTime': 19.001, 'SimTime': 1093.67, 'MediaTime': 19.59998, 'LonAccel': 0.802312, 'LatAccel': -0.021641, 'Throttle': 30.387337, 'Brake': 0.046586, 'Gear': 4, 'Heading': 89.915971, 'HeadingError': -0.001463, 'HeadwayDistance': 308.813737, 'HeadwayTime': 12.261706, 'Lane': 2, 'LaneOffset': 0.170364, 'RoadOffset': 5.570364, 'Steer': -0.00136, 'TailwayDistance': 10000, 'TailwayTime': 397.058323, 'Velocity': 57, 'LatVelocity': 0.003419, 'VertVelocity': 0.055651, 'XPos': -3914.673096, 'YPos': -12443.38281, 'ZPos': -0.534808, 'Roll': 0.008608, 'Pitch': 0.126733, 'Yaw': 89.915956, 'EngineRPM': 2787.052734, 'SlipFR': 0.012579, 'SlipFL': 0.012544, 'SlipRR': 0.000507, 'SlipRL': 0.000502, 'Label': 0}
{'DatTime': 19.999, 'SimTime': 1094.67, 'MediaTime': 20.599979, 'LonAccel': 0.778565, 'LatAccel': -0.026456, 'Throttle': 30.217567, 'Brake': 0.046586, 'Gear': 4, 'Heading': 89.87363, 'HeadingError': -0.002202, 'HeadwayDistance': 305.994786, 'HeadwayTime': 11.77961, 'Lane': 2, 'LaneOffset': 0.127737, 'RoadOffset': 5.527737, 'Steer': -0.004658, 'TailwayDistance': 10000, 'TailwayTime': 384.961134, 'Velocity': 58, 'LatVelocity': 0.00282, 'VertVelocity': 0.054316, 'XPos': -3914.630371, 'YPos': -12417.79981, 'ZPos': -0.535028, 'Roll': 0.010531, 'Pitch': 0.120194, 'Yaw': 89.873615, 'EngineRPM': 2858.520996, 'SlipFR': 0.012443, 'SlipFL': 0.012394, 'SlipRR': 0.000497, 'SlipRL': 0.000495, 'Label': 0}
{'DatTime': 21, 'SimTime': 1095.67, 'MediaTime': 21.599978, 'LonAccel': 0.703522, 'LatAccel': -0.025901, 'Throttle': 29.077677, 'Brake': 0.046586, 'Gear': 4, 'Heading': 89.796299, 'HeadingError': -0.003551, 'HeadwayDistance': 302.409233, 'HeadwayTime': 11.32388, 'Lane': 2, 'LaneOffset': 0.055327, 'RoadOffset': 5.455327, 'Steer': -0.002302, 'TailwayDistance': 299.529883, 'TailwayTime': 11.216061, 'Velocity': 60, 'LatVelocity': 0.003953, 'VertVelocity': 0.042711, 'XPos': -3914.557861, 'YPos': -12391.4502, 'ZPos': -0.535209, 'Roll': 0.011101, 'Pitch': 0.092684, 'Yaw': 89.796284, 'EngineRPM': 2916.692383, 'SlipFR': 0.011731, 'SlipFL': 0.011689, 'SlipRR': 0.000462, 'SlipRL': 0.000459, 'Label': 0}
{'DatTime': 22.001, 'SimTime': 1096.67, 'MediaTime': 22.599977, 'LonAccel': 0.730153, 'LatAccel': 0.017131, 'Throttle': 29.975037, 'Brake': 0.046586, 'Gear': 4, 'Heading': 89.792153, 'HeadingError': -0.003624, 'HeadwayDistance': 298.104929, 'HeadwayTime': 10.866742, 'Lane': 2, 'LaneOffset': -0.042226, 'RoadOffset': 5.357774, 'Steer': 0.006649, 'TailwayDistance': 298.463123, 'TailwayTime': 10.879799, 'Velocity': 62, 'LatVelocity': 0.000311, 'VertVelocity': 0.050579, 'XPos': -3914.460205, 'YPos': -12364.38184, 'ZPos': -0.535395, 'Roll': -0.004706, 'Pitch': 0.105872, 'Yaw': 89.792138, 'EngineRPM': 2990.976563, 'SlipFR': 0.012099, 'SlipFL': 0.012133, 'SlipRR': 0.000453, 'SlipRL': 0.000447, 'Label': 0}
{'DatTime': 23.001, 'SimTime': 1097.67, 'MediaTime': 23.599976, 'LonAccel': 0.692951, 'LatAccel': 0.038551, 'Throttle': 29.465725, 'Brake': 0.046586, 'Gear': 4, 'Heading': 89.887018, 'HeadingError': -0.001968, 'HeadwayDistance': 293.074064, 'HeadwayTime': 10.410793, 'Lane': 2, 'LaneOffset': -0.123175, 'RoadOffset': 5.276825, 'Steer': 0.005707, 'TailwayDistance': 298.598577, 'TailwayTime': 10.607039, 'Velocity': 63, 'LatVelocity': -0.005177, 'VertVelocity': 0.048257, 'XPos': -3914.37915, 'YPos': -12336.58691, 'ZPos': -0.535569, 'Roll': -0.01517, 'Pitch': 0.098463, 'Yaw': 89.887003, 'EngineRPM': 3051.187744, 'SlipFR': 0.011761, 'SlipFL': 0.011826, 'SlipRR': 0.000474, 'SlipRL': 0.000479, 'Label': 0}
{'DatTime': 24.001, 'SimTime': 1098.67, 'MediaTime': 24.599975, 'LonAccel': 0.679284, 'LatAccel': 0.0522, 'Throttle': 28.713884, 'Brake': 0, 'Gear': 4, 'Heading': 89.987353, 'HeadingError': -0.000217, 'HeadwayDistance': 287.350815, 'HeadwayTime': 9.969163, 'Lane': 2, 'LaneOffset': -0.161641, 'RoadOffset': 5.238359, 'Steer': 0.007905, 'TailwayDistance': 299.426394, 'TailwayTime': 10.388106, 'Velocity': 65, 'LatVelocity': -0.006874, 'VertVelocity': 0.047418, 'XPos': -3914.340576, 'YPos': -12308.09961, 'ZPos': -0.535746, 'Roll': -0.021201, 'Pitch': 0.093486, 'Yaw': 89.987338, 'EngineRPM': 2780.841309, 'SlipFR': 0.011385, 'SlipFL': 0.011474, 'SlipRR': 0.000522, 'SlipRL': 0.000505, 'Label': 0}
{'DatTime': 25.001, 'SimTime': 1099.67, 'MediaTime': 25.599974, 'LonAccel': 0.396709, 'LatAccel': 0.042298, 'Throttle': 29.077677, 'Brake': 0, 'Gear': 4, 'Heading': 90.081091, 'HeadingError': 0.001419, 'HeadwayDistance': 281.046512, 'HeadwayTime': 9.59926, 'Lane': 2, 'LaneOffset': -0.14908, 'RoadOffset': 5.25092, 'Steer': 0.006335, 'TailwayDistance': 300.835265, 'TailwayTime': 10.275153, 'Velocity': 66, 'LatVelocity': -0.005487, 'VertVelocity': 0.00613, 'XPos': -3914.353027, 'YPos': -12279.03125, 'ZPos': -0.536208, 'Roll': -0.017182, 'Pitch': 0.012392, 'Yaw': 90.081076, 'EngineRPM': 2386.575195, 'SlipFR': 0.008621, 'SlipFL': 0.008674, 'SlipRR': 0.000348, 'SlipRL': 0.000352, 'Label': 0}
{'DatTime': 26.001, 'SimTime': 1100.67, 'MediaTime': 26.599973, 'LonAccel': -0.369414, 'LatAccel': 0.052974, 'Throttle': 5.916122, 'Brake': 0, 'Gear': 4, 'Heading': 90.175955, 'HeadingError': 0.003075, 'HeadwayDistance': 274.48928, 'HeadwayTime': 9.408346, 'Lane': 2, 'LaneOffset': -0.090619, 'RoadOffset': 5.309381, 'Steer': 0.006335, 'TailwayDistance': 302.497066, 'TailwayTime': 10.368336, 'Velocity': 66, 'LatVelocity': -0.007333, 'VertVelocity': -0.130708, 'XPos': -3914.411377, 'YPos': -12249.70996, 'ZPos': -0.536591, 'Roll': -0.021835, 'Pitch': -0.246194, 'Yaw': 90.17594, 'EngineRPM': 2002.564331, 'SlipFR': 0.000865, 'SlipFL': 0.0009, 'SlipRR': 0.000413, 'SlipRL': 0.000416, 'Label': 0}
{'DatTime': 27, 'SimTime': 1101.67, 'MediaTime': 27.599972, 'LonAccel': 0.14173, 'LatAccel': -0.03471, 'Throttle': 18.406385, 'Brake': 0, 'Gear': 4, 'Heading': 90.181829, 'HeadingError': 0.003177, 'HeadwayDistance': 268.104899, 'HeadwayTime': 9.18453, 'Lane': 2, 'LaneOffset': 0.008613, 'RoadOffset': 5.408613, 'Steer': -0.002302, 'TailwayDistance': 303.986015, 'TailwayTime': 10.413718, 'Velocity': 66, 'LatVelocity': 0.005901, 'VertVelocity': -0.033586, 'XPos': -3914.510498, 'YPos': -12220.56152, 'ZPos': -0.536444, 'Roll': 0.015796, 'Pitch': -0.065717, 'Yaw': 90.181814, 'EngineRPM': 2242.189209, 'SlipFR': 0.00583, 'SlipFL': 0.005803, 'SlipRR': 0.000311, 'SlipRL': 0.000316, 'Label': 0}
{'DatTime': 28.001, 'SimTime': 1102.67, 'MediaTime': 28.599971, 'LonAccel': 0.069762, 'LatAccel': -0.009655, 'Throttle': 16.441898, 'Brake': 0, 'Gear': 4, 'Heading': 90.184281, 'HeadingError': 0.00322, 'HeadwayDistance': 261.288608, 'HeadwayTime': 8.927571, 'Lane': 2, 'LaneOffset': 0.103203, 'RoadOffset': 5.503203, 'Steer': -0.003087, 'TailwayDistance': 305.56188, 'TailwayTime': 10.440277, 'Velocity': 66, 'LatVelocity': 0.000409, 'VertVelocity': -0.043803, 'XPos': -3914.60498, 'YPos': -12191.32617, 'ZPos': -0.536554, 'Roll': 0.003487, 'Pitch': -0.085484, 'Yaw': 90.184266, 'EngineRPM': 2214.638428, 'SlipFR': 0.005048, 'SlipFL': 0.005039, 'SlipRR': 0.000057, 'SlipRL': 0.000062, 'Label': 0}
{'DatTime': 29, 'SimTime': 1103.67, 'MediaTime': 29.59997, 'LonAccel': 0.084406, 'LatAccel': -0.041297, 'Throttle': 16.97546, 'Brake': 0.046586, 'Gear': 4, 'Heading': 90.108247, 'HeadingError': 0.001893, 'HeadwayDistance': 254.147009, 'HeadwayTime': 8.660669, 'Lane': 2, 'LaneOffset': 0.183381, 'RoadOffset': 5.583381, 'Steer': -0.006385, 'TailwayDistance': 307.208055, 'TailwayTime': 10.468851, 'Velocity': 66, 'LatVelocity': 0.005042, 'VertVelocity': -0.042373, 'XPos': -3914.685059, 'YPos': -12162.02051, 'ZPos': -0.53654, 'Roll': 0.01673, 'Pitch': -0.082774, 'Yaw': 90.108232, 'EngineRPM': 2226.084473, 'SlipFR': 0.005252, 'SlipFL': 0.005222, 'SlipRR': 0.000258, 'SlipRL': 0.000259, 'Label': 0}
{'DatTime': 30, 'SimTime': 1104.67, 'MediaTime': 30.599969, 'LonAccel': 0.166398, 'LatAccel': -0.044538, 'Throttle': 19.594778, 'Brake': 0.046586, 'Gear': 4, 'Heading': 90.029215, 'HeadingError': 0.000513, 'HeadwayDistance': 246.912638, 'HeadwayTime': 8.379891, 'Lane': 2, 'LaneOffset': 0.224009, 'RoadOffset': 5.624009, 'Steer': -0.007013, 'TailwayDistance': 308.947004, 'TailwayTime': 10.485256, 'Velocity': 66, 'LatVelocity': 0.005201, 'VertVelocity': -0.031102, 'XPos': -3914.725586, 'YPos': -12132.62207, 'ZPos': -0.536468, 'Roll': 0.018436, 'Pitch': -0.060631, 'Yaw': 90.0292, 'EngineRPM': 2281.81543, 'SlipFR': 0.006202, 'SlipFL': 0.006162, 'SlipRR': 0.00029, 'SlipRL': 0.000298, 'Label': 0}
{'DatTime': 31.001, 'SimTime': 1105.68, 'MediaTime': 31.599968, 'LonAccel': 0.165933, 'LatAccel': 0.029237, 'Throttle': 19.473515, 'Brake': 0, 'Gear': 4, 'Heading': 90.039549, 'HeadingError': 0.000694, 'HeadwayDistance': 239.894346, 'HeadwayTime': 8.094717, 'Lane': 2, 'LaneOffset': 0.234852, 'RoadOffset': 5.634852, 'Steer': 0.00445, 'TailwayDistance': 310.378283, 'TailwayTime': 10.473046, 'Velocity': 67, 'LatVelocity': -0.003839, 'VertVelocity': -0.029815, 'XPos': -3914.736328, 'YPos': -12103.07031, 'ZPos': -0.536502, 'Roll': -0.011756, 'Pitch': -0.057304, 'Yaw': 90.039534, 'EngineRPM': 2285.977051, 'SlipFR': 0.006144, 'SlipFL': 0.00617, 'SlipRR': 0.000204, 'SlipRL': 0.000205, 'Label': 0}
{'DatTime': 32.001, 'SimTime': 1106.67, 'MediaTime': 32.599967, 'LonAccel': 0.161464, 'LatAccel': -0.001719, 'Throttle': 19.449263, 'Brake': 0.046586, 'Gear': 4, 'Heading': 90.064145, 'HeadingError': 0.001123, 'HeadwayDistance': 231.971238, 'HeadwayTime': 7.784359, 'Lane': 2, 'LaneOffset': 0.262542, 'RoadOffset': 5.662542, 'Steer': -0.00136, 'TailwayDistance': 312.897559, 'TailwayTime': 10.500038, 'Velocity': 67, 'LatVelocity': -0.000654, 'VertVelocity': -0.030393, 'XPos': -3914.763916, 'YPos': -12073.35254, 'ZPos': -0.536542, 'Roll': 0.000998, 'Pitch': -0.058424, 'Yaw': 90.06413, 'EngineRPM': 2293.480957, 'SlipFR': 0.00613, 'SlipFL': 0.006126, 'SlipRR': 0.000101, 'SlipRL': 0.000103, 'Label': 0}
{'DatTime': 33, 'SimTime': 1107.67, 'MediaTime': 33.599966, 'LonAccel': 0.161318, 'LatAccel': -0.01084, 'Throttle': 19.570526, 'Brake': 0.046586, 'Gear': 4, 'Heading': 90.045806, 'HeadingError': 0.000803, 'HeadwayDistance': 224.25542, 'HeadwayTime': 7.485116, 'Lane': 2, 'LaneOffset': 0.291941, 'RoadOffset': 5.691941, 'Steer': -0.001988, 'TailwayDistance': 315.117954, 'TailwayTime': 10.517892, 'Velocity': 67, 'LatVelocity': 0.001305, 'VertVelocity': -0.030747, 'XPos': -3914.793213, 'YPos': -12043.47266, 'ZPos': -0.536592, 'Roll': 0.004055, 'Pitch': -0.058751, 'Yaw': 90.045791, 'EngineRPM': 2303.676514, 'SlipFR': 0.006161, 'SlipFL': 0.006151, 'SlipRR': 0.000118, 'SlipRL': 0.000119, 'Label': 0}
{'DatTime': 34.001, 'SimTime': 1108.67, 'MediaTime': 34.599965, 'LonAccel': 0.158002, 'LatAccel': -0.007883, 'Throttle': 19.594778, 'Brake': 0.046586, 'Gear': 4, 'Heading': 90.001451, 'HeadingError': 0.000029, 'HeadwayDistance': 216.680228, 'HeadwayTime': 7.19433, 'Lane': 2, 'LaneOffset': 0.306691, 'RoadOffset': 5.706691, 'Steer': 0.001938, 'TailwayDistance': 317.197723, 'TailwayTime': 10.531764, 'Velocity': 68, 'LatVelocity': 0.0029, 'VertVelocity': -0.03111, 'XPos': -3914.807861, 'YPos': -12013.7334, 'ZPos': -0.536622, 'Roll': 0.004323, 'Pitch': -0.059323, 'Yaw': 90.001436, 'EngineRPM': 2311.174561, 'SlipFR': 0.006145, 'SlipFL': 0.006142, 'SlipRR': 0.000132, 'SlipRL': 0.00013, 'Label': 0}
{'DatTime': 35.001, 'SimTime': 1109.67, 'MediaTime': 35.599964, 'LonAccel': 0.157625, 'LatAccel': 0.01947, 'Throttle': 19.716043, 'Brake': 0.046586, 'Gear': 4, 'Heading': 90.049631, 'HeadingError': 0.00087, 'HeadwayDistance': 208.344294, 'HeadwayTime': 6.881061, 'Lane': 2, 'LaneOffset': 0.31827, 'RoadOffset': 5.71827, 'Steer': 0.001153, 'TailwayDistance': 320.038235, 'TailwayTime': 10.570016, 'Velocity': 68, 'LatVelocity': -0.00343, 'VertVelocity': -0.031459, 'XPos': -3914.819336, 'YPos': -11983.2334, 'ZPos': -0.536672, 'Roll': -0.009119, 'Pitch': -0.059496, 'Yaw': 90.049616, 'EngineRPM': 2321.230713, 'SlipFR': 0.006161, 'SlipFL': 0.006177, 'SlipRR': 0.000176, 'SlipRL': 0.000177, 'Label': 0}
{'DatTime': 36, 'SimTime': 1110.67, 'MediaTime': 36.599963, 'LonAccel': 0.145293, 'LatAccel': -0.067816, 'Throttle': 19.449263, 'Brake': 0.046586, 'Gear': 4, 'Heading': 89.914598, 'HeadingError': -0.001487, 'HeadwayDistance': 200.152891, 'HeadwayTime': 6.576902, 'Lane': 2, 'LaneOffset': 0.321547, 'RoadOffset': 5.721547, 'Steer': -0.0056, 'TailwayDistance': 322.734215, 'TailwayTime': 10.60485, 'Velocity': 68, 'LatVelocity': 0.011224, 'VertVelocity': -0.032299, 'XPos': -3914.82251, 'YPos': -11952.87793, 'ZPos': -0.536716, 'Roll': 0.030547, 'Pitch': -0.06087, 'Yaw': 89.914583, 'EngineRPM': 2321.928467, 'SlipFR': 0.006105, 'SlipFL': 0.00605, 'SlipRR': 0.000493, 'SlipRL': 0.00049, 'Label': 0}
{'DatTime': 37.001, 'SimTime': 1111.67, 'MediaTime': 37.599962, 'LonAccel': 0.148309, 'LatAccel': -0.020922, 'Throttle': 19.643284, 'Brake': 0.046586, 'Gear': 4, 'Heading': 89.88195, 'HeadingError': -0.002057, 'HeadwayDistance': 191.812073, 'HeadwayTime': 6.272735, 'Lane': 2, 'LaneOffset': 0.272579, 'RoadOffset': 5.672579, 'Steer': -0.002302, 'TailwayDistance': 299.831708, 'TailwayTime': 9.805248, 'Velocity': 69, 'LatVelocity': 0.00343, 'VertVelocity': -0.032657, 'XPos': -3914.773438, 'YPos': -11922.37305, 'ZPos': -0.536754, 'Roll': 0.009006, 'Pitch': -0.061186, 'Yaw': 89.881935, 'EngineRPM': 2332.99585, 'SlipFR': 0.006124, 'SlipFL': 0.006106, 'SlipRR': 0.000171, 'SlipRL': 0.00017, 'Label': 0}
{'DatTime': 38.001, 'SimTime': 1112.67, 'MediaTime': 38.599961, 'LonAccel': 0.062031, 'LatAccel': 0.073272, 'Throttle': 17.363506, 'Brake': 0, 'Gear': 4, 'Heading': 89.988842, 'HeadingError': -0.000191, 'HeadwayDistance': 183.334537, 'HeadwayTime': 5.973557, 'Lane': 2, 'LaneOffset': 0.224588, 'RoadOffset': 5.624588, 'Steer': 0.009161, 'TailwayDistance': 293.276462, 'TailwayTime': 9.555775, 'Velocity': 69, 'LatVelocity': -0.010627, 'VertVelocity': -0.042906, 'XPos': -3914.725342, 'YPos': -11891.73145, 'ZPos': -0.536837, 'Roll': -0.031148, 'Pitch': -0.080038, 'Yaw': 89.988827, 'EngineRPM': 2311.149658, 'SlipFR': 0.005196, 'SlipFL': 0.005248, 'SlipRR': 0.000474, 'SlipRL': 0.000487, 'Label': 0}
{'DatTime': 38.999, 'SimTime': 1113.67, 'MediaTime': 39.59996, 'LonAccel': 0.106319, 'LatAccel': 0.017475, 'Throttle': 18.721672, 'Brake': 0, 'Gear': 4, 'Heading': 90.029065, 'HeadingError': 0.000511, 'HeadwayDistance': 175.078678, 'HeadwayTime': 5.68984, 'Lane': 2, 'LaneOffset': 0.228355, 'RoadOffset': 5.628355, 'Steer': 0.003351, 'TailwayDistance': 287.806646, 'TailwayTime': 9.353359, 'Velocity': 69, 'LatVelocity': -0.001794, 'VertVelocity': -0.040861, 'XPos': -3914.729004, 'YPos': -11861.31152, 'ZPos': -0.536859, 'Roll': -0.006685, 'Pitch': -0.076165, 'Yaw': 90.02905, 'EngineRPM': 2332.990234, 'SlipFR': 0.00569, 'SlipFL': 0.005706, 'SlipRR': 0.000114, 'SlipRL': 0.000111, 'Label': 0}
{'DatTime': 40.001, 'SimTime': 1114.67, 'MediaTime': 40.599959, 'LonAccel': 0.112593, 'LatAccel': -0.016412, 'Throttle': 18.842939, 'Brake': 0, 'Gear': 4, 'Heading': 90.033928, 'HeadingError': 0.000596, 'HeadwayDistance': 166.109931, 'HeadwayTime': 5.378883, 'Lane': 2, 'LaneOffset': 0.249945, 'RoadOffset': 5.649945, 'Steer': -0.001831, 'TailwayDistance': 283.04972, 'TailwayTime': 9.165564, 'Velocity': 69, 'LatVelocity': 0.002909, 'VertVelocity': -0.038633, 'XPos': -3914.750488, 'YPos': -11830.17871, 'ZPos': -0.536855, 'Roll': 0.006243, 'Pitch': -0.071481, 'Yaw': 90.033913, 'EngineRPM': 2340.670166, 'SlipFR': 0.005773, 'SlipFL': 0.005761, 'SlipRR': 0.000145, 'SlipRL': 0.000142, 'Label': 0}
{'DatTime': 41, 'SimTime': 1115.67, 'MediaTime': 41.599958, 'LonAccel': 0.057876, 'LatAccel': 0.019567, 'Throttle': 17.557531, 'Brake': 0, 'Gear': 4, 'Heading': 90.044242, 'HeadingError': 0.000776, 'HeadwayDistance': 157.352122, 'HeadwayTime': 5.083692, 'Lane': 2, 'LaneOffset': 0.267141, 'RoadOffset': 5.667141, 'Steer': 0.001624, 'TailwayDistance': 278.081857, 'TailwayTime': 8.984198, 'Velocity': 70, 'LatVelocity': -0.003568, 'VertVelocity': -0.048423, 'XPos': -3914.767578, 'YPos': -11799.25684, 'ZPos': -0.536942, 'Roll': -0.008475, 'Pitch': -0.089421, 'Yaw': 90.044227, 'EngineRPM': 2328.914063, 'SlipFR': 0.005187, 'SlipFL': 0.0052, 'SlipRR': 0.000164, 'SlipRL': 0.000164, 'Label': 0}
{'DatTime': 42, 'SimTime': 1116.67, 'MediaTime': 42.599957, 'LonAccel': 0.104031, 'LatAccel': -0.015565, 'Throttle': 18.891443, 'Brake': 0.046586, 'Gear': 4, 'Heading': 90.029632, 'HeadingError': 0.000521, 'HeadwayDistance': 148.525953, 'HeadwayTime': 4.78507, 'Lane': 2, 'LaneOffset': 0.289708, 'RoadOffset': 5.689708, 'Steer': -0.002302, 'TailwayDistance': 273.182353, 'TailwayTime': 8.801133, 'Velocity': 70, 'LatVelocity': 0.002165, 'VertVelocity': -0.039883, 'XPos': -3914.790039, 'YPos': -11768.2666, 'ZPos': -0.536909, 'Roll': 0.006906, 'Pitch': -0.0735, 'Yaw': 90.029617, 'EngineRPM': 2351.463135, 'SlipFR': 0.005727, 'SlipFL': 0.005713, 'SlipRR': 0.000122, 'SlipRL': 0.000118, 'Label': 0}
{'DatTime': 43, 'SimTime': 1117.67, 'MediaTime': 43.599956, 'LonAccel': 0.049508, 'LatAccel': -0.005344, 'Throttle': 17.484776, 'Brake': 0.046586, 'Gear': 4, 'Heading': 90.01884, 'HeadingError': 0.000332, 'HeadwayDistance': 139.599198, 'HeadwayTime': 4.484047, 'Lane': 2, 'LaneOffset': 0.303242, 'RoadOffset': 5.703242, 'Steer': -0.001046, 'TailwayDistance': 268.383436, 'TailwayTime': 8.620708, 'Velocity': 70, 'LatVelocity': 0.0006, 'VertVelocity': -0.046026, 'XPos': -3914.803467, 'YPos': -11737.17578, 'ZPos': -0.53693, 'Roll': 0.002008, 'Pitch': -0.0848, 'Yaw': 90.018825, 'EngineRPM': 2338.125977, 'SlipFR': 0.005124, 'SlipFL': 0.005119, 'SlipRR': 0.000046, 'SlipRL': 0.000039, 'Label': 0}
{'DatTime': 44.001, 'SimTime': 1118.68, 'MediaTime': 44.599955, 'LonAccel': -0.361323, 'LatAccel': -0.06126, 'Throttle': 4.800488, 'Brake': 0, 'Gear': 4, 'Heading': 89.971029, 'HeadingError': -0.000502, 'HeadwayDistance': 130.684423, 'HeadwayTime': 4.205411, 'Lane': 2, 'LaneOffset': 0.309209, 'RoadOffset': 5.709209, 'Steer': -0.010311, 'TailwayDistance': 263.343778, 'TailwayTime': 8.474375, 'Velocity': 70, 'LatVelocity': 0.007418, 'VertVelocity': -0.093648, 'XPos': -3914.809326, 'YPos': -11705.72754, 'ZPos': -0.536911, 'Roll': 0.023848, 'Pitch': -0.173721, 'Yaw': 89.971014, 'EngineRPM': 2121.157227, 'SlipFR': 0.000949, 'SlipFL': 0.000972, 'SlipRR': 0.000469, 'SlipRL': 0.000397, 'Label': 0}
{'DatTime': 45.001, 'SimTime': 1119.67, 'MediaTime': 45.599954, 'LonAccel': -0.063519, 'LatAccel': 0.006027, 'Throttle': 13.871084, 'Brake': 0.046586, 'Gear': 4, 'Heading': 89.978815, 'HeadingError': -0.000366, 'HeadwayDistance': 121.815028, 'HeadwayTime': 3.93886, 'Lane': 2, 'LaneOffset': 0.284423, 'RoadOffset': 5.684423, 'Steer': -0.010311, 'TailwayDistance': 258.716262, 'TailwayTime': 8.36553, 'Velocity': 69, 'LatVelocity': -0.007834, 'VertVelocity': -0.062605, 'XPos': -3914.784424, 'YPos': -11675.06348, 'ZPos': -0.536976, 'Roll': -0.010366, 'Pitch': -0.115787, 'Yaw': 89.9788, 'EngineRPM': 2268.716064, 'SlipFR': 0.003847, 'SlipFL': 0.00384, 'SlipRR': 0.000241, 'SlipRL': 0.000257, 'Label': 0}
{'DatTime': 46, 'SimTime': 1120.67, 'MediaTime': 46.599953, 'LonAccel': -0.098726, 'LatAccel': 0.037653, 'Throttle': 12.391658, 'Brake': 0, 'Gear': 4, 'Heading': 89.945149, 'HeadingError': -0.000953, 'HeadwayDistance': 113.092374, 'HeadwayTime': 3.666251, 'Lane': 2, 'LaneOffset': 0.250608, 'RoadOffset': 5.650608, 'Steer': 0.00445, 'TailwayDistance': 253.713242, 'TailwayTime': 8.224927, 'Velocity': 69, 'LatVelocity': -0.006358, 'VertVelocity': -0.068936, 'XPos': -3914.750488, 'YPos': -11644.17676, 'ZPos': -0.537014, 'Roll': -0.015549, 'Pitch': -0.127826, 'Yaw': 89.945134, 'EngineRPM': 2239.5, 'SlipFR': 0.003447, 'SlipFL': 0.003461, 'SlipRR': 0.000298, 'SlipRL': 0.000306, 'Label': 0}
{'DatTime': 47.001, 'SimTime': 1121.67, 'MediaTime': 47.599952, 'LonAccel': -0.0514, 'LatAccel': -0.001115, 'Throttle': 14.792699, 'Brake': 0.046586, 'Gear': 4, 'Heading': 89.942813, 'HeadingError': -0.000994, 'HeadwayDistance': 104.78183, 'HeadwayTime': 3.409662, 'Lane': 2, 'LaneOffset': 0.220454, 'RoadOffset': 5.620454, 'Steer': -0.000575, 'TailwayDistance': 248.298114, 'TailwayTime': 8.079766, 'Velocity': 69, 'LatVelocity': -0.000794, 'VertVelocity': -0.065819, 'XPos': -3914.720215, 'YPos': -11613.70215, 'ZPos': -0.537017, 'Roll': -0.000601, 'Pitch': -0.123694, 'Yaw': 89.942798, 'EngineRPM': 2276.15918, 'SlipFR': 0.004023, 'SlipFL': 0.004021, 'SlipRR': 0.00005, 'SlipRL': 0.000034, 'Label': 0}
{'DatTime': 48.001, 'SimTime': 1122.67, 'MediaTime': 48.599951, 'LonAccel': 0.088561, 'LatAccel': -0.730273, 'Throttle': 18.333626, 'Brake': 0.046586, 'Gear': 4, 'Heading': 89.167204, 'HeadingError': -0.014531, 'HeadwayDistance': 95.889255, 'HeadwayTime': 3.115323, 'Lane': 2, 'LaneOffset': 0.102655, 'RoadOffset': 5.502655, 'Steer': -0.093538, 'TailwayDistance': 243.465017, 'TailwayTime': 7.909876, 'Velocity': 69, 'LatVelocity': 0.098234, 'VertVelocity': -0.045518, 'XPos': -3914.602295, 'YPos': -11582.64551, 'ZPos': -0.536688, 'Roll': 0.295465, 'Pitch': -0.081211, 'Yaw': 89.16719, 'EngineRPM': 2327.388916, 'SlipFR': 0.00869, 'SlipFL': 0.008355, 'SlipRR': 0.004701, 'SlipRL': 0.004692, 'Label': 0}
{'DatTime': 49, 'SimTime': 1123.67, 'MediaTime': 49.59995, 'LonAccel': 0.175466, 'LatAccel': -0.446671, 'Throttle': 21.365246, 'Brake': 0, 'Gear': 4, 'Heading': 88.065543, 'HeadingError': -0.033759, 'HeadwayDistance': 87.209568, 'HeadwayTime': 2.820651, 'Lane': 2, 'LaneOffset': -0.587166, 'RoadOffset': 4.812834, 'Steer': -0.050197, 'TailwayDistance': 238.419032, 'TailwayTime': 7.711274, 'Velocity': 69, 'LatVelocity': 0.065359, 'VertVelocity': -0.029524, 'XPos': -3913.912354, 'YPos': -11551.80176, 'ZPos': -0.53673, 'Roll': 0.186114, 'Pitch': -0.054395, 'Yaw': 88.065528, 'EngineRPM': 2373.370117, 'SlipFR': 0.007672, 'SlipFL': 0.007354, 'SlipRR': 0.002852, 'SlipRL': 0.002856, 'Label': 0}
{'DatTime': 50, 'SimTime': 1124.67, 'MediaTime': 50.599949, 'LonAccel': 0.172255, 'LatAccel': -0.04482, 'Throttle': 21.365246, 'Brake': 0.046586, 'Gear': 4, 'Heading': 87.897138, 'HeadingError': -0.036698, 'HeadwayDistance': 78.372652, 'HeadwayTime': 2.521143, 'Lane': 2, 'LaneOffset': -1.677377, 'RoadOffset': 3.722623, 'Steer': -0.005757, 'TailwayDistance': 233.530274, 'TailwayTime': 7.512355, 'Velocity': 70, 'LatVelocity': 0.005946, 'VertVelocity': -0.029287, 'XPos': -3912.822021, 'YPos': -11520.80078, 'ZPos': -0.536874, 'Roll': 0.017714, 'Pitch': -0.053731, 'Yaw': 87.897123, 'EngineRPM': 2382.606689, 'SlipFR': 0.006508, 'SlipFL': 0.006467, 'SlipRR': 0.000309, 'SlipRL': 0.000307, 'Label': 0}
{'DatTime': 51, 'SimTime': 1125.67, 'MediaTime': 51.599948, 'LonAccel': 0.11266, 'LatAccel': 0.368468, 'Throttle': 19.230986, 'Brake': 0, 'Gear': 4, 'Heading': 88.151057, 'HeadingError': -0.032266, 'HeadwayDistance': 10000, 'HeadwayTime': 320.109471, 'Lane': 1, 'LaneOffset': 0.800919, 'RoadOffset': 2.600919, 'Steer': 0.073073, 'TailwayDistance': 10000, 'TailwayTime': 320.109471, 'Velocity': 70, 'LatVelocity': -0.032104, 'VertVelocity': -0.036534, 'XPos': -3911.700195, 'YPos': -11489.63379, 'ZPos': -0.536779, 'Roll': -0.140393, 'Pitch': -0.067959, 'Yaw': 88.151042, 'EngineRPM': 2367.693359, 'SlipFR': 0.006829, 'SlipFL': 0.007097, 'SlipRR': 0.00183, 'SlipRL': 0.001829, 'Label': 0}
{'DatTime': 52.001, 'SimTime': 1126.67, 'MediaTime': 52.599947, 'LonAccel': 0.107607, 'LatAccel': 0.557668, 'Throttle': 19.230986, 'Brake': 0, 'Gear': 4, 'Heading': 89.284561, 'HeadingError': -0.012483, 'HeadwayDistance': 10000, 'HeadwayTime': 318.871106, 'Lane': 1, 'LaneOffset': 0.031266, 'RoadOffset': 1.831266, 'Steer': 0.071503, 'TailwayDistance': 10000, 'TailwayTime': 318.871106, 'Velocity': 70, 'LatVelocity': -0.077566, 'VertVelocity': -0.040716, 'XPos': -3910.93042, 'YPos': -11458.33301, 'ZPos': -0.537023, 'Roll': -0.233494, 'Pitch': -0.073934, 'Yaw': 89.284546, 'EngineRPM': 2373.929199, 'SlipFR': 0.007525, 'SlipFL': 0.007839, 'SlipRR': 0.003422, 'SlipRL': 0.003425, 'Label': 0}
{'DatTime': 53, 'SimTime': 1127.67, 'MediaTime': 53.599946, 'LonAccel': 0.107948, 'LatAccel': 0.522094, 'Throttle': 19.352251, 'Brake': 0, 'Gear': 4, 'Heading': 90.250206, 'HeadingError': 0.004371, 'HeadwayDistance': 10000, 'HeadwayTime': 317.751863, 'Lane': 1, 'LaneOffset': -0.175399, 'RoadOffset': 1.624601, 'Steer': 0.063966, 'TailwayDistance': 10000, 'TailwayTime': 317.751863, 'Velocity': 71, 'LatVelocity': -0.075689, 'VertVelocity': -0.040834, 'XPos': -3910.723633, 'YPos': -11426.91699, 'ZPos': -0.537048, 'Roll': -0.221348, 'Pitch': -0.073245, 'Yaw': 90.250191, 'EngineRPM': 2382.201416, 'SlipFR': 0.007287, 'SlipFL': 0.007596, 'SlipRR': 0.003297, 'SlipRL': 0.003303, 'Label': 0}
{'DatTime': 54.001, 'SimTime': 1128.67, 'MediaTime': 54.599945, 'LonAccel': 0.104148, 'LatAccel': -0.043227, 'Throttle': 19.327999, 'Brake': 0, 'Gear': 4, 'Heading': 90.35828, 'HeadingError': 0.006257, 'HeadwayDistance': 10000, 'HeadwayTime': 316.708256, 'Lane': 1, 'LaneOffset': 0.014422, 'RoadOffset': 1.814422, 'Steer': 0.005392, 'TailwayDistance': 10000, 'TailwayTime': 316.708256, 'Velocity': 71, 'LatVelocity': 0.012968, 'VertVelocity': -0.040202, 'XPos': -3910.91333, 'YPos': -11395.39356, 'ZPos': -0.537013, 'Roll': 0.022914, 'Pitch': -0.072134, 'Yaw': 90.358265, 'EngineRPM': 2389.145264, 'SlipFR': 0.005824, 'SlipFL': 0.005804, 'SlipRR': 0.000518, 'SlipRL': 0.00051, 'Label': 0}
{'DatTime': 55.001, 'SimTime': 1129.67, 'MediaTime': 55.599944, 'LonAccel': 0.098015, 'LatAccel': -0.020811, 'Throttle': 19.206732, 'Brake': 0, 'Gear': 4, 'Heading': 90.810159, 'HeadingError': 0.014144, 'HeadwayDistance': 10000, 'HeadwayTime': 315.728664, 'Lane': 1, 'LaneOffset': 0.318012, 'RoadOffset': 2.118012, 'Steer': -0.053966, 'TailwayDistance': 10000, 'TailwayTime': 315.728664, 'Velocity': 71, 'LatVelocity': -0.028014, 'VertVelocity': -0.037544, 'XPos': -3911.216797, 'YPos': -11363.76856, 'ZPos': -0.536832, 'Roll': -0.003345, 'Pitch': -0.072129, 'Yaw': 90.810143, 'EngineRPM': 2393.407715, 'SlipFR': 0.005935, 'SlipFL': 0.005847, 'SlipRR': 0.000536, 'SlipRL': 0.00052, 'Label': 1}
{'DatTime': 56, 'SimTime': 1130.67, 'MediaTime': 56.599943, 'LonAccel': 0.095577, 'LatAccel': -0.510237, 'Throttle': 19.255238, 'Brake': 0, 'Gear': 4, 'Heading': 89.79507, 'HeadingError': -0.003573, 'HeadwayDistance': 10000, 'HeadwayTime': 314.76201, 'Lane': 1, 'LaneOffset': 0.532003, 'RoadOffset': 2.332003, 'Steer': -0.069355, 'TailwayDistance': 10000, 'TailwayTime': 314.76201, 'Velocity': 71, 'LatVelocity': 0.069815, 'VertVelocity': -0.042936, 'XPos': -3911.430664, 'YPos': -11332.04688, 'ZPos': -0.53712, 'Roll': 0.205798, 'Pitch': -0.077581, 'Yaw': 89.795055, 'EngineRPM': 2398.801025, 'SlipFR': 0.007542, 'SlipFL': 0.007252, 'SlipRR': 0.003104, 'SlipRL': 0.003102, 'Label': 1}
{'DatTime': 57.001, 'SimTime': 1131.67, 'MediaTime': 57.599942, 'LonAccel': 0.100035, 'LatAccel': -0.110491, 'Throttle': 19.473515, 'Brake': 0, 'Gear': 4, 'Heading': 89.109913, 'HeadingError': -0.015531, 'HeadwayDistance': 10000, 'HeadwayTime': 313.824435, 'Lane': 1, 'LaneOffset': 0.236473, 'RoadOffset': 2.036473, 'Steer': -0.003715, 'TailwayDistance': 10000, 'TailwayTime': 313.824435, 'Velocity': 72, 'LatVelocity': 0.019512, 'VertVelocity': -0.041268, 'XPos': -3911.13501, 'YPos': -11300.22949, 'ZPos': -0.536853, 'Roll': 0.058703, 'Pitch': -0.073511, 'Yaw': 89.109898, 'EngineRPM': 2408.391602, 'SlipFR': 0.005922, 'SlipFL': 0.005828, 'SlipRR': 0.000697, 'SlipRL': 0.000694, 'Label': 1}
{'DatTime': 58.001, 'SimTime': 1132.67, 'MediaTime': 58.599941, 'LonAccel': -0.491497, 'LatAccel': 0.232476, 'Throttle': 0, 'Brake': 0, 'Gear': 4, 'Heading': 89.341634, 'HeadingError': -0.011487, 'HeadwayDistance': 10000, 'HeadwayTime': 315.975402, 'Lane': 1, 'LaneOffset': -0.224584, 'RoadOffset': 1.575416, 'Steer': 0.030832, 'TailwayDistance': 10000, 'TailwayTime': 315.975402, 'Velocity': 71, 'LatVelocity': -0.031589, 'VertVelocity': -0.149456, 'XPos': -3910.673828, 'YPos': -11268.40137, 'ZPos': -0.537146, 'Roll': -0.08834, 'Pitch': -0.262747, 'Yaw': 89.341619, 'EngineRPM': 2158.808105, 'SlipFR': 0.002208, 'SlipFL': 0.002254, 'SlipRR': 0.001482, 'SlipRL': 0.001502, 'Label': 1}
{'DatTime': 59.001, 'SimTime': 1133.67, 'MediaTime': 59.59994, 'LonAccel': -0.483096, 'LatAccel': 0.27023, 'Throttle': 0.071165, 'Brake': 0, 'Gear': 4, 'Heading': 89.872742, 'HeadingError': -0.002217, 'HeadwayDistance': 10000, 'HeadwayTime': 320.888161, 'Lane': 1, 'LaneOffset': -0.477879, 'RoadOffset': 1.322121, 'Steer': 0.025807, 'TailwayDistance': 10000, 'TailwayTime': 320.888161, 'Velocity': 70, 'LatVelocity': -0.040086, 'VertVelocity': -0.133277, 'XPos': -3910.42041, 'YPos': -11236.99609, 'ZPos': -0.537633, 'Roll': -0.113608, 'Pitch': -0.244411, 'Yaw': 89.872727, 'EngineRPM': 2123.43457, 'SlipFR': 0.002342, 'SlipFL': 0.002356, 'SlipRR': 0.001806, 'SlipRL': 0.001806, 'Label': 1}
{'DatTime': 60.001, 'SimTime': 1134.67, 'MediaTime': 60.599939, 'LonAccel': -0.252944, 'LatAccel': 0.371771, 'Throttle': 8.583946, 'Brake': 0, 'Gear': 4, 'Heading': 90.417204, 'HeadingError': 0.007285, 'HeadwayDistance': 10000, 'HeadwayTime': 324.572301, 'Lane': 1, 'LaneOffset': -0.481421, 'RoadOffset': 1.318579, 'Steer': 0.010889, 'TailwayDistance': 10000, 'TailwayTime': 324.572301, 'Velocity': 69, 'LatVelocity': -0.075991, 'VertVelocity': -0.09674, 'XPos': -3910.416748, 'YPos': -11206.03027, 'ZPos': -0.537176, 'Roll': -0.171172, 'Pitch': -0.178047, 'Yaw': 90.417189, 'EngineRPM': 2124.401855, 'SlipFR': 0.003078, 'SlipFL': 0.003104, 'SlipRR': 0.003223, 'SlipRL': 0.00322, 'Label': 1}
{'DatTime': 61.001, 'SimTime': 1135.67, 'MediaTime': 61.599938, 'LonAccel': -0.208311, 'LatAccel': -0.097512, 'Throttle': 9.554063, 'Brake': 0.046586, 'Gear': 4, 'Heading': 89.810704, 'HeadingError': -0.003301, 'HeadwayDistance': 10000, 'HeadwayTime': 326.957628, 'Lane': 1, 'LaneOffset': -0.39367, 'RoadOffset': 1.40633, 'Steer': 0.028319, 'TailwayDistance': 10000, 'TailwayTime': 326.957628, 'Velocity': 69, 'LatVelocity': 0.038004, 'VertVelocity': -0.083323, 'XPos': -3910.504395, 'YPos': -11175.33594, 'ZPos': -0.536985, 'Roll': 0.051608, 'Pitch': -0.160242, 'Yaw': 89.810689, 'EngineRPM': 2149.7771, 'SlipFR': 0.002262, 'SlipFL': 0.002283, 'SlipRR': 0.00111, 'SlipRL': 0.001138, 'Label': 1}
{'DatTime': 62, 'SimTime': 1136.67, 'MediaTime': 62.599937, 'LonAccel': -0.215508, 'LatAccel': 0.239898, 'Throttle': 9.044752, 'Brake': 0, 'Gear': 4, 'Heading': 90.387807, 'HeadingError': 0.006772, 'HeadwayDistance': 10000, 'HeadwayTime': 329.213435, 'Lane': 1, 'LaneOffset': -0.354508, 'RoadOffset': 1.445492, 'Steer': 0.02722, 'TailwayDistance': 10000, 'TailwayTime': 329.213435, 'Velocity': 68, 'LatVelocity': -0.03205, 'VertVelocity': -0.088562, 'XPos': -3910.543457, 'YPos': -11144.85547, 'ZPos': -0.53706, 'Roll': -0.098239, 'Pitch': -0.167557, 'Yaw': 90.387792, 'EngineRPM': 2126.755859, 'SlipFR': 0.002973, 'SlipFL': 0.003015, 'SlipRR': 0.001496, 'SlipRL': 0.001498, 'Label': 1}
{'DatTime': 63.001, 'SimTime': 1137.67, 'MediaTime': 63.599936, 'LonAccel': -0.204403, 'LatAccel': -0.223085, 'Throttle': 9.238777, 'Brake': 0, 'Gear': 4, 'Heading': 90.026982, 'HeadingError': 0.000474, 'HeadwayDistance': 10000, 'HeadwayTime': 331.484908, 'Lane': 1, 'LaneOffset': -0.209635, 'RoadOffset': 1.590365, 'Steer': -0.033709, 'TailwayDistance': 10000, 'TailwayTime': 331.484908, 'Velocity': 68, 'LatVelocity': 0.027042, 'VertVelocity': -0.085915, 'XPos': -3910.688232, 'YPos': -11114.58496, 'ZPos': -0.53707, 'Roll': 0.088522, 'Pitch': -0.163686, 'Yaw': 90.026967, 'EngineRPM': 2121.743408, 'SlipFR': 0.003115, 'SlipFL': 0.003068, 'SlipRR': 0.001274, 'SlipRL': 0.001274, 'Label': 1}
{'DatTime': 64.001, 'SimTime': 1138.67, 'MediaTime': 64.599935, 'LonAccel': -0.18948, 'LatAccel': 0.111103, 'Throttle': 9.626822, 'Brake': 0.046586, 'Gear': 4, 'Heading': 89.908594, 'HeadingError': -0.001592, 'HeadwayDistance': 10000, 'HeadwayTime': 333.659194, 'Lane': 1, 'LaneOffset': -0.255191, 'RoadOffset': 1.544809, 'Steer': 0.018583, 'TailwayDistance': 10000, 'TailwayTime': 333.659194, 'Velocity': 67, 'LatVelocity': -0.014021, 'VertVelocity': -0.083117, 'XPos': -3910.642578, 'YPos': -11084.51758, 'ZPos': -0.53682, 'Roll': -0.047903, 'Pitch': -0.158271, 'Yaw': 89.908579, 'EngineRPM': 2121.743896, 'SlipFR': 0.002566, 'SlipFL': 0.002599, 'SlipRR': 0.00077, 'SlipRL': 0.000773, 'Label': 1}
{'DatTime': 65, 'SimTime': 1139.67, 'MediaTime': 65.599934, 'LonAccel': -0.18552, 'LatAccel': 0.084937, 'Throttle': 9.626822, 'Brake': 0, 'Gear': 4, 'Heading': 90.203009, 'HeadingError': 0.003546, 'HeadwayDistance': 10000, 'HeadwayTime': 335.760324, 'Lane': 1, 'LaneOffset': -0.239957, 'RoadOffset': 1.560043, 'Steer': 0.001467, 'TailwayDistance': 10000, 'TailwayTime': 335.760324, 'Velocity': 67, 'LatVelocity': -0.019012, 'VertVelocity': -0.08214, 'XPos': -3910.657715, 'YPos': -11054.64063, 'ZPos': -0.536898, 'Roll': -0.039805, 'Pitch': -0.158944, 'Yaw': 90.202994, 'EngineRPM': 2112.2854, 'SlipFR': 0.002432, 'SlipFL': 0.002439, 'SlipRR': 0.000793, 'SlipRL': 0.000785, 'Label': 1}
{'DatTime': 66.001, 'SimTime': 1140.67, 'MediaTime': 66.599933, 'LonAccel': -0.211192, 'LatAccel': 0.14106, 'Throttle': 8.535439, 'Brake': 0.046586, 'Gear': 4, 'Heading': 90.443603, 'HeadingError': 0.007746, 'HeadwayDistance': 10000, 'HeadwayTime': 338.079647, 'Lane': 1, 'LaneOffset': -0.112419, 'RoadOffset': 1.687581, 'Steer': 0.001153, 'TailwayDistance': 10000, 'TailwayTime': 338.079647, 'Velocity': 66, 'LatVelocity': -0.031949, 'VertVelocity': -0.087894, 'XPos': -3910.785156, 'YPos': -11024.95508, 'ZPos': -0.536801, 'Roll': -0.061989, 'Pitch': -0.169741, 'Yaw': 90.443588, 'EngineRPM': 2075.228271, 'SlipFR': 0.002241, 'SlipFL': 0.002247, 'SlipRR': 0.001316, 'SlipRL': 0.00131, 'Label': 1}
{'DatTime': 67.001, 'SimTime': 1141.67, 'MediaTime': 67.599932, 'LonAccel': 0.062466, 'LatAccel': 0.076284, 'Throttle': 16.490402, 'Brake': 0.046586, 'Gear': 4, 'Heading': 90.151038, 'HeadingError': 0.002639, 'HeadwayDistance': 10000, 'HeadwayTime': 339.349289, 'Lane': 1, 'LaneOffset': 0.029279, 'RoadOffset': 1.829279, 'Steer': 0.023608, 'TailwayDistance': 10000, 'TailwayTime': 339.349289, 'Velocity': 66, 'LatVelocity': -0.004767, 'VertVelocity': -0.040017, 'XPos': -3910.926758, 'YPos': -10995.45898, 'ZPos': -0.536373, 'Roll': -0.0292, 'Pitch': -0.080429, 'Yaw': 90.151024, 'EngineRPM': 2227.662598, 'SlipFR': 0.005067, 'SlipFL': 0.005135, 'SlipRR': 0.000644, 'SlipRL': 0.000582, 'Label': 1}
{'DatTime': 68.001, 'SimTime': 1142.67, 'MediaTime': 68.599931, 'LonAccel': -0.021811, 'LatAccel': -0.172862, 'Throttle': 13.871084, 'Brake': 0, 'Gear': 4, 'Heading': 90.071754, 'HeadingError': 0.001256, 'HeadwayDistance': 10000, 'HeadwayTime': 339.089405, 'Lane': 1, 'LaneOffset': 0.129472, 'RoadOffset': 1.929472, 'Steer': -0.024287, 'TailwayDistance': 10000, 'TailwayTime': 339.089405, 'Velocity': 66, 'LatVelocity': 0.021425, 'VertVelocity': -0.055477, 'XPos': -3911.026855, 'YPos': -10965.97266, 'ZPos': -0.53662, 'Roll': 0.07143, 'Pitch': -0.106587, 'Yaw': 90.071739, 'EngineRPM': 2190.62085, 'SlipFR': 0.004379, 'SlipFL': 0.004289, 'SlipRR': 0.001104, 'SlipRL': 0.001091, 'Label': 1}
{'DatTime': 69, 'SimTime': 1143.67, 'MediaTime': 69.59993, 'LonAccel': -0.060646, 'LatAccel': -0.029274, 'Throttle': 12.997979, 'Brake': 0.046586, 'Gear': 4, 'Heading': 90.099231, 'HeadingError': 0.001735, 'HeadwayDistance': 10000, 'HeadwayTime': 339.741349, 'Lane': 1, 'LaneOffset': 0.161795, 'RoadOffset': 1.961795, 'Steer': -0.022245, 'TailwayDistance': 10000, 'TailwayTime': 339.741349, 'Velocity': 66, 'LatVelocity': -0.008251, 'VertVelocity': -0.061889, 'XPos': -3911.059082, 'YPos': -10936.50781, 'ZPos': -0.536693, 'Roll': 0.002924, 'Pitch': -0.121697, 'Yaw': 90.099217, 'EngineRPM': 2171.80127, 'SlipFR': 0.003729, 'SlipFL': 0.003689, 'SlipRR': 0.000166, 'SlipRL': 0.000154, 'Label': 1}
{'DatTime': 70.001, 'SimTime': 1144.67, 'MediaTime': 70.599929, 'LonAccel': -0.045579, 'LatAccel': -0.197619, 'Throttle': 13.507292, 'Brake': 0.046586, 'Gear': 4, 'Heading': 89.610087, 'HeadingError': -0.006802, 'HeadwayDistance': 10000, 'HeadwayTime': 340.430682, 'Lane': 1, 'LaneOffset': 0.109156, 'RoadOffset': 1.909156, 'Steer': -0.025857, 'TailwayDistance': 10000, 'TailwayTime': 340.430682, 'Velocity': 66, 'LatVelocity': 0.025171, 'VertVelocity': -0.061878, 'XPos': -3911.006348, 'YPos': -10907.10449, 'ZPos': -0.536652, 'Roll': 0.082723, 'Pitch': -0.121433, 'Yaw': 89.610073, 'EngineRPM': 2178.672607, 'SlipFR': 0.004268, 'SlipFL': 0.004178, 'SlipRR': 0.001192, 'SlipRL': 0.001197, 'Label': 1}
{'DatTime': 71.001, 'SimTime': 1145.67, 'MediaTime': 71.599928, 'LonAccel': -0.043339, 'LatAccel': 0.055555, 'Throttle': 13.361773, 'Brake': 0, 'Gear': 4, 'Heading': 89.471578, 'HeadingError': -0.009219, 'HeadwayDistance': 10000, 'HeadwayTime': 340.847648, 'Lane': 1, 'LaneOffset': -0.125857, 'RoadOffset': 1.674143, 'Steer': 0.029733, 'TailwayDistance': 10000, 'TailwayTime': 340.847648, 'Velocity': 66, 'LatVelocity': 0.005925, 'VertVelocity': -0.058724, 'XPos': -3910.77124, 'YPos': -10878.04102, 'ZPos': -0.536575, 'Roll': -0.015785, 'Pitch': -0.115928, 'Yaw': 89.471563, 'EngineRPM': 2172.936523, 'SlipFR': 0.003911, 'SlipFL': 0.003969, 'SlipRR': 0.000028, 'SlipRL': 0.000051, 'Label': 1}
{'DatTime': 72, 'SimTime': 1146.67, 'MediaTime': 72.599927, 'LonAccel': -0.03299, 'LatAccel': 0.077331, 'Throttle': 13.677062, 'Brake': 0.046586, 'Gear': 4, 'Heading': 90.063913, 'HeadingError': 0.001119, 'HeadwayDistance': 10000, 'HeadwayTime': 341.307535, 'Lane': 1, 'LaneOffset': -0.255887, 'RoadOffset': 1.544113, 'Steer': -0.013137, 'TailwayDistance': 10000, 'TailwayTime': 341.307535, 'Velocity': 66, 'LatVelocity': -0.025069, 'VertVelocity': -0.0564, 'XPos': -3910.641113, 'YPos': -10848.42969, 'ZPos': -0.536486, 'Roll': -0.043481, 'Pitch': -0.112929, 'Yaw': 90.063898, 'EngineRPM': 2175.17749, 'SlipFR': 0.003932, 'SlipFL': 0.003936, 'SlipRR': 0.000925, 'SlipRL': 0.000911, 'Label': 1}
{'DatTime': 73.001, 'SimTime': 1147.67, 'MediaTime': 73.599926, 'LonAccel': -0.044927, 'LatAccel': 0.070645, 'Throttle': 13.143499, 'Brake': 0, 'Gear': 4, 'Heading': 90.065852, 'HeadingError': 0.001153, 'HeadwayDistance': 10000, 'HeadwayTime': 341.716429, 'Lane': 1, 'LaneOffset': -0.245294, 'RoadOffset': 1.554706, 'Steer': 0.013087, 'TailwayDistance': 10000, 'TailwayTime': 341.716429, 'Velocity': 66, 'LatVelocity': -0.007147, 'VertVelocity': -0.060051, 'XPos': -3910.651611, 'YPos': -10819.14746, 'ZPos': -0.536592, 'Roll': -0.02647, 'Pitch': -0.117093, 'Yaw': 90.065837, 'EngineRPM': 2164.382324, 'SlipFR': 0.003819, 'SlipFL': 0.003859, 'SlipRR': 0.000381, 'SlipRL': 0.000386, 'Label': 1}
{'DatTime': 74, 'SimTime': 1148.67, 'MediaTime': 74.599925, 'LonAccel': -0.072846, 'LatAccel': 0.065022, 'Throttle': 12.512921, 'Brake': 0.046586, 'Gear': 4, 'Heading': 90.254434, 'HeadingError': 0.004444, 'HeadwayDistance': 10000, 'HeadwayTime': 342.455544, 'Lane': 1, 'LaneOffset': -0.172934, 'RoadOffset': 1.627066, 'Steer': 0.005707, 'TailwayDistance': 10000, 'TailwayTime': 342.455544, 'Velocity': 66, 'LatVelocity': -0.010112, 'VertVelocity': -0.064303, 'XPos': -3910.723877, 'YPos': -10790.20606, 'ZPos': -0.536638, 'Roll': -0.027508, 'Pitch': -0.126601, 'Yaw': 90.254419, 'EngineRPM': 2149.798096, 'SlipFR': 0.003513, 'SlipFL': 0.003539, 'SlipRR': 0.000449, 'SlipRL': 0.000449, 'Label': 1}
{'DatTime': 75.001, 'SimTime': 1149.67, 'MediaTime': 75.599924, 'LonAccel': -0.045449, 'LatAccel': -0.02409, 'Throttle': 13.240511, 'Brake': 0, 'Gear': 4, 'Heading': 90.226901, 'HeadingError': 0.003963, 'HeadwayDistance': 10000, 'HeadwayTime': 343.190225, 'Lane': 1, 'LaneOffset': -0.047107, 'RoadOffset': 1.752893, 'Steer': -0.003558, 'TailwayDistance': 10000, 'TailwayTime': 343.190225, 'Velocity': 65, 'LatVelocity': 0.002901, 'VertVelocity': -0.060773, 'XPos': -3910.849609, 'YPos': -10761.03809, 'ZPos': -0.536624, 'Roll': 0.009623, 'Pitch': -0.119692, 'Yaw': 90.226886, 'EngineRPM': 2159.429199, 'SlipFR': 0.003796, 'SlipFL': 0.003783, 'SlipRR': 0.000147, 'SlipRL': 0.000152, 'Label': 1}
{'DatTime': 76, 'SimTime': 1150.67, 'MediaTime': 76.599923, 'LonAccel': -0.031466, 'LatAccel': -0.016231, 'Throttle': 13.555797, 'Brake': 0, 'Gear': 4, 'Heading': 90.190421, 'HeadingError': 0.003328, 'HeadwayDistance': 10000, 'HeadwayTime': 343.614184, 'Lane': 1, 'LaneOffset': 0.061662, 'RoadOffset': 1.861662, 'Steer': -0.002616, 'TailwayDistance': 10000, 'TailwayTime': 343.614184, 'Velocity': 65, 'LatVelocity': 0.001844, 'VertVelocity': -0.05845, 'XPos': -3910.958252, 'YPos': -10731.62793, 'ZPos': -0.536603, 'Roll': 0.006461, 'Pitch': -0.115066, 'Yaw': 90.190406, 'EngineRPM': 2162.82666, 'SlipFR': 0.003923, 'SlipFL': 0.003914, 'SlipRR': 0.0001, 'SlipRL': 0.000099, 'Label': 1}
{'DatTime': 76.999, 'SimTime': 1151.68, 'MediaTime': 77.599922, 'LonAccel': -0.016056, 'LatAccel': -0.069023, 'Throttle': 13.943846, 'Brake': 0, 'Gear': 4, 'Heading': 90.11768, 'HeadingError': 0.002059, 'HeadwayDistance': 10000, 'HeadwayTime': 343.895354, 'Lane': 1, 'LaneOffset': 0.149696, 'RoadOffset': 1.949696, 'Steer': -0.013294, 'TailwayDistance': 10000, 'TailwayTime': 343.895354, 'Velocity': 65, 'LatVelocity': 0.006628, 'VertVelocity': -0.055747, 'XPos': -3911.046143, 'YPos': -10702.24805, 'ZPos': -0.536551, 'Roll': 0.02781, 'Pitch': -0.109993, 'Yaw': 90.117665, 'EngineRPM': 2167.799561, 'SlipFR': 0.004157, 'SlipFL': 0.004114, 'SlipRR': 0.000399, 'SlipRL': 0.000399, 'Label': 1}
{'DatTime': 78, 'SimTime': 1152.67, 'MediaTime': 78.599921, 'LonAccel': -0.016309, 'LatAccel': 0.037662, 'Throttle': 13.943846, 'Brake': 0, 'Gear': 4, 'Heading': 90.06883, 'HeadingError': 0.001201, 'HeadwayDistance': 10000, 'HeadwayTime': 344.087964, 'Lane': 1, 'LaneOffset': 0.177539, 'RoadOffset': 1.977539, 'Steer': 0.00288, 'TailwayDistance': 10000, 'TailwayTime': 344.087964, 'Velocity': 65, 'LatVelocity': -0.006143, 'VertVelocity': -0.056324, 'XPos': -3911.081055, 'YPos': -10673.46875, 'ZPos': -0.536508, 'Roll': -0.015755, 'Pitch': -0.110366, 'Yaw': 90.068815, 'EngineRPM': 2167.284912, 'SlipFR': 0.004077, 'SlipFL': 0.004094, 'SlipRR': 0.000317, 'SlipRL': 0.00032, 'Label': 1}
{'DatTime': 79, 'SimTime': 1153.67, 'MediaTime': 79.59992, 'LonAccel': -0.017989, 'LatAccel': 0.087891, 'Throttle': 13.871084, 'Brake': 0.046586, 'Gear': 4, 'Heading': 90.138095, 'HeadingError': 0.002414, 'HeadwayDistance': 10000, 'HeadwayTime': 344.291754, 'Lane': 1, 'LaneOffset': 0.216134, 'RoadOffset': 2.016134, 'Steer': 0.016699, 'TailwayDistance': 10000, 'TailwayTime': 344.291754, 'Velocity': 65, 'LatVelocity': -0.009996, 'VertVelocity': -0.056377, 'XPos': -3911.119629, 'YPos': -10644.41504, 'ZPos': -0.536525, 'Roll': -0.034125, 'Pitch': -0.110998, 'Yaw': 90.13808, 'EngineRPM': 2164.517822, 'SlipFR': 0.004114, 'SlipFL': 0.004163, 'SlipRR': 0.000545, 'SlipRL': 0.000546, 'Label': 1}
{'DatTime': 80, 'SimTime': 1154.67, 'MediaTime': 80.599919, 'LonAccel': -0.019759, 'LatAccel': -0.212049, 'Throttle': 13.822579, 'Brake': 0.046586, 'Gear': 4, 'Heading': 89.96062, 'HeadingError': -0.000684, 'HeadwayDistance': 10000, 'HeadwayTime': 344.521209, 'Lane': 1, 'LaneOffset': 0.28436, 'RoadOffset': 2.08436, 'Steer': -0.02994, 'TailwayDistance': 10000, 'TailwayTime': 344.521209, 'Velocity': 65, 'LatVelocity': 0.026806, 'VertVelocity': -0.056781, 'XPos': -3911.187744, 'YPos': -10615.37891, 'ZPos': -0.536526, 'Roll': 0.088022, 'Pitch': -0.110787, 'Yaw': 89.960605, 'EngineRPM': 2162.535889, 'SlipFR': 0.004505, 'SlipFL': 0.004402, 'SlipRR': 0.001371, 'SlipRL': 0.001365, 'Label': 1}
{'DatTime': 81.001, 'SimTime': 1155.67, 'MediaTime': 81.599918, 'LonAccel': -0.019558, 'LatAccel': -0.061847, 'Throttle': 13.822579, 'Brake': 0, 'Gear': 4, 'Heading': 89.59836, 'HeadingError': -0.007006, 'HeadwayDistance': 10000, 'HeadwayTime': 344.767451, 'Lane': 1, 'LaneOffset': 0.177536, 'RoadOffset': 1.977536, 'Steer': -0.000889, 'TailwayDistance': 10000, 'TailwayTime': 344.767451, 'Velocity': 65, 'LatVelocity': 0.00956, 'VertVelocity': -0.056013, 'XPos': -3911.080811, 'YPos': -10586.36328, 'ZPos': -0.536429, 'Roll': 0.030929, 'Pitch': -0.110505, 'Yaw': 89.598345, 'EngineRPM': 2161.786377, 'SlipFR': 0.004074, 'SlipFL': 0.004041, 'SlipRR': 0.000387, 'SlipRL': 0.000387, 'Label': 1}
{'DatTime': 82.001, 'SimTime': 1156.67, 'MediaTime': 82.599917, 'LonAccel': -0.018907, 'LatAccel': 0.052368, 'Throttle': 13.822579, 'Brake': 0, 'Gear': 4, 'Heading': 89.703743, 'HeadingError': -0.005167, 'HeadwayDistance': 10000, 'HeadwayTime': 344.989254, 'Lane': 1, 'LaneOffset': -0.000822, 'RoadOffset': 1.799178, 'Steer': 0.008376, 'TailwayDistance': 10000, 'TailwayTime': 344.989254, 'Velocity': 65, 'LatVelocity': -0.005974, 'VertVelocity': -0.056523, 'XPos': -3910.902344, 'YPos': -10557.6582, 'ZPos': -0.536555, 'Roll': -0.021403, 'Pitch': -0.11178, 'Yaw': 89.703728, 'EngineRPM': 2160.498779, 'SlipFR': 0.004047, 'SlipFL': 0.004077, 'SlipRR': 0.00032, 'SlipRL': 0.00032, 'Label': 1}
{'DatTime': 83, 'SimTime': 1157.67, 'MediaTime': 83.599916, 'LonAccel': -0.018429, 'LatAccel': 0.062562, 'Throttle': 13.822579, 'Brake': 0, 'Gear': 4, 'Heading': 89.823948, 'HeadingError': -0.003069, 'HeadwayDistance': 10000, 'HeadwayTime': 345.210592, 'Lane': 1, 'LaneOffset': -0.128884, 'RoadOffset': 1.671116, 'Steer': 0.009789, 'TailwayDistance': 10000, 'TailwayTime': 345.210592, 'Velocity': 65, 'LatVelocity': -0.007247, 'VertVelocity': -0.05638, 'XPos': -3910.77417, 'YPos': -10528.39063, 'ZPos': -0.536559, 'Roll': -0.025727, 'Pitch': -0.111503, 'Yaw': 89.823933, 'EngineRPM': 2159.38208, 'SlipFR': 0.004058, 'SlipFL': 0.004094, 'SlipRR': 0.000384, 'SlipRL': 0.000384, 'Label': 1}
{'DatTime': 84, 'SimTime': 1158.67, 'MediaTime': 84.599915, 'LonAccel': -0.017914, 'LatAccel': 0.120133, 'Throttle': 13.822579, 'Brake': 0, 'Gear': 4, 'Heading': 90.020322, 'HeadingError': 0.000358, 'HeadwayDistance': 10000, 'HeadwayTime': 345.426502, 'Lane': 1, 'LaneOffset': -0.184438, 'RoadOffset': 1.615562, 'Steer': 0.018583, 'TailwayDistance': 10000, 'TailwayTime': 345.426502, 'Velocity': 65, 'LatVelocity': -0.01421, 'VertVelocity': -0.056337, 'XPos': -3910.718506, 'YPos': -10499.43262, 'ZPos': -0.536547, 'Roll': -0.048128, 'Pitch': -0.111283, 'Yaw': 90.020307, 'EngineRPM': 2158.239014, 'SlipFR': 0.004152, 'SlipFL': 0.004216, 'SlipRR': 0.000746, 'SlipRL': 0.000747, 'Label': 1}
{'DatTime': 85, 'SimTime': 1159.67, 'MediaTime': 85.599914, 'LonAccel': 0.012324, 'LatAccel': -0.033819, 'Throttle': 14.647179, 'Brake': 0.046586, 'Gear': 4, 'Heading': 90.130958, 'HeadingError': 0.002289, 'HeadwayDistance': 10000, 'HeadwayTime': 345.537349, 'Lane': 1, 'LaneOffset': -0.138674, 'RoadOffset': 1.661326, 'Steer': -0.008897, 'TailwayDistance': 10000, 'TailwayTime': 345.537349, 'Velocity': 65, 'LatVelocity': 0.001438, 'VertVelocity': -0.051431, 'XPos': -3910.76416, 'YPos': -10470.49023, 'ZPos': -0.536417, 'Roll': 0.017289, 'Pitch': -0.102235, 'Yaw': 90.130943, 'EngineRPM': 2170.666748, 'SlipFR': 0.004399, 'SlipFL': 0.004368, 'SlipRR': 0.000215, 'SlipRL': 0.000222, 'Label': 0}
{'DatTime': 86, 'SimTime': 1160.67, 'MediaTime': 86.599913, 'LonAccel': 0.013019, 'LatAccel': 0.002634, 'Throttle': 14.695687, 'Brake': 0.046586, 'Gear': 4, 'Heading': 90.216424, 'HeadingError': 0.003781, 'HeadwayDistance': 10000, 'HeadwayTime': 345.188068, 'Lane': 1, 'LaneOffset': -0.060439, 'RoadOffset': 1.739561, 'Steer': -0.008269, 'TailwayDistance': 10000, 'TailwayTime': 345.188068, 'Velocity': 65, 'LatVelocity': -0.006008, 'VertVelocity': -0.047642, 'XPos': -3910.842285, 'YPos': -10441.53613, 'ZPos': -0.536436, 'Roll': 0.00001, 'Pitch': -0.095198, 'Yaw': 90.216409, 'EngineRPM': 2173.234131, 'SlipFR': 0.004376, 'SlipFL': 0.00436, 'SlipRR': 0.000121, 'SlipRL': 0.000123, 'Label': 0}
